{ 
    "pah": 
    [ 
        { 
            "id": "pah",
            "name": "Princess Alexandra Hospital",
            "region": "mets",
            "state": "Queensland",
            "suburb": "Woolloongabba",
            "address": "199 Ipswich Rd",
            "lat": -27.500540,
            "lon": 153.034616
		}, 
    ], 
    "qeh": 
    [ 
        { 
            "id": "qeh",
            "name": "Queen Elizabeth 2 Hospital",
            "region": "mets",
            "state": "Queensland",
            "suburb": "Coopers Plains",
            "address": "Troughton Rd & Kessels Rd",
            "lat": -27.55875,
            "lon": 153.05078
		}, 
    ], 
    "mah": 
    [ 
        { 
            "id": "mah",
            "name": "Mater Adults Hospital",
            "region": "mets",
            "state": "Queensland",
            "suburb": "South Brisbane",
            "address": "20 Raymond Tce",
            "lat": -27.48627,
            "lon": 153.02784
		}, 
    ], 
    "lch": 
    [ 
        { 
            "id": "lch",
            "name": "Logan Hospital",
            "region": "mets",
            "state": "Queensland",
            "suburb": "Meadowbrook",
            "address": "Armstrong Rd & Loganlea Rd",
            "lat": -27.6709,
            "lon": 153.13899
		}, 
    ], 
    "bdh": 
    [ 
        { 
            "id": "bdh",
            "name": "Beaudesert Hospital",
            "region": "mets",
            "state": "Queensland",
            "suburb": "Beaudesert",
            "address": "64 Tina St",
            "lat": -27.98464,
            "lon": 153.0025
		}, 
    ], 
    "rlh": 
    [ 
        { 
            "id": "rlh",
            "name": "Redland Hospital",
            "region": "mets",
            "state": "Queensland",
            "suburb": "Cleveland",
            "address": "Weippin St",
            "lat": -27.5415,
            "lon": 153.25
		}, 
    ], 
    "rbwh": 
    [ 
        { 
            "id": "rbwh",
            "name": "Royal Brisbane and Womens Hospital",
            "region": "metn",
            "state": "Queensland",
            "suburb": "Herston",
            "address": "Butterfield St & Bowen Bridge Rd",
            "lat": -27.44599,
            "lon": 153.02969
		}, 
    ], 
    "pch": 
    [ 
        { 
            "id": "pch",
            "name": "Prince Charles Hospital",
            "region": "metn",
            "state": "Queensland",
            "suburb": "Chermside",
            "address": "Rode Rd & Main Rd",
            "lat": -27.39249,
            "lon": 153.02401
		}, 
    ], 
    "cah": 
    [ 
        { 
            "id": "cah",
            "name": "Caboolture Hospital",
            "region": "metn",
            "state": "Queensland",
            "suburb": "Caboolture",
            "address": "120 McKean St",
            "lat": -27.07916,
            "lon": 152.96454
		}, 
    ], 
    "rdh": 
    [ 
        { 
            "id": "rdh",
            "name": "Redcliffe Hospital",
            "region": "metn",
            "state": "Queensland",
            "suburb": "Redcliffe",
            "address": "Anzac Ave",
            "lat": -27.227814,
            "lon": 153.104373
		}, 
    ], 
    "igh": 
    [ 
        { 
            "id": "igh",
            "name": "Ipswich Hospital",
            "region": "wemo",
            "state": "Queensland",
            "suburb": "Ipswich",
            "address": "Chelmsford Ave",
            "lat": -27.619616,
            "lon": 152.758649
		}, 
    ], 
}